file_name,streetview_id,batch,streetview,description,copyright_text,copyright_url,place_id,licence,osm_type,osm_id,house_number,road,floor,suburb,city,county,state_district,state,postcode,country,country_code,latitude,longitude,altitude,heading,datetimeoriginal,gpsdatetime,project,roll,pitch,yaw,temperature,pressure,speed,msec,gpsage,timestatus,sv,hdop,links,stitcher,FRC,EDGE_ID,Trip_Name,ELOC,,,,,,,,,,
Camera,95185,0,Camera-20170616-095052-000000001,,Copyright By CE Info Systems Ltd All Rights Reserved,www.mapmyindia.com,,,,,,,,,Mysuru,,Mysuru District,Karnataka,570001,India,91,12.31012605,76.64919336,689.9468155,91.68349539,"16th June 2017, 9:49 am",6/16/2017 4:19,2017_RVS_Mysore_Tumkur,,,,,,,,,,,,,,5,66400367,Camera-20170616-095052.zip,,,,,,,,,,,
Camera,95186,0,Camera-20170616-095052-000000003,,Copyright By CE Info Systems Ltd All Rights Reserved,www.mapmyindia.com,,,,,,,,,Mysuru,,Mysuru District,Karnataka,570001,India,91,12.30989681,76.65006087,688.6619334,58.72855858,"16th June 2017, 9:49 am",6/16/2017 4:19,2017_RVS_Mysore_Tumkur,,,,,,,,,,,,,,2,66400194,Camera-20170616-095052.zip,,,,,,,,,,,
Camera,95187,0,Camera-20170616-095052-000000006,,Copyright By CE Info Systems Ltd All Rights Reserved,www.mapmyindia.com,,,,,,,,,Mysuru,,Mysuru District,Karnataka,570001,India,91,12.30992653,76.65019352,688.7420505,104.7306851,"16th June 2017, 9:49 am",6/16/2017 4:19,2017_RVS_Mysore_Tumkur,,,,,,,,,,,,,,2,66400194,Camera-20170616-095052.zip,,,,,,,,,,,
Camera,95188,0,Camera-20170616-095052-000000007,,Copyright By CE Info Systems Ltd All Rights Reserved,www.mapmyindia.com,,,,,,,,,Mysuru,,Mysuru District,Karnataka,570001,India,91,12.30965192,76.65126256,687.493335,207.0153452,"16th June 2017, 9:50 am",6/16/2017 4:20,2017_RVS_Mysore_Tumkur,,,,,,,,,,,,,,2,212280918,Camera-20170616-095052.zip,,,,,,,,,,,
Camera,95189,0,Camera-20170616-095052-000000009,,Copyright By CE Info Systems Ltd All Rights Reserved,www.mapmyindia.com,,,,,,,,,Mysuru,,Mysuru District,Karnataka,570001,India,91,12.30954105,76.65147363,687.4269794,108.1841288,"16th June 2017, 9:50 am",6/16/2017 4:20,2017_RVS_Mysore_Tumkur,,,,,,,,,,,,,,2,66400196,Camera-20170616-095052.zip,,,,,,,,,,,
Camera,95190,0,Camera-20170616-095052-000000012,,Copyright By CE Info Systems Ltd All Rights Reserved,www.mapmyindia.com,,,,,,,,,Mysuru,,Mysuru District,Karnataka,570001,India,91,12.30950912,76.65161205,688.172968,105.5459419,"16th June 2017, 9:50 am",6/16/2017 4:20,2017_RVS_Mysore_Tumkur,,,,,,,,,,,,,,2,66400196,Camera-20170616-095052.zip,,,,,,,,,,,
Camera,95191,0,Camera-20170616-095052-000000015,,Copyright By CE Info Systems Ltd All Rights Reserved,www.mapmyindia.com,,,,,,,,,Mysuru,,Mysuru District,Karnataka,570001,India,91,12.30947324,76.65174809,689.2814833,110.1605285,"16th June 2017, 9:50 am",6/16/2017 4:20,2017_RVS_Mysore_Tumkur,,,,,,,,,,,,,,2,66400196,Camera-20170616-095052.zip,,,,,,,,,,,
Camera,95192,0,Camera-20170616-095052-000000018,,Copyright By CE Info Systems Ltd All Rights Reserved,www.mapmyindia.com,,,,,,,,,Mysuru,,Mysuru District,Karnataka,570001,India,91,12.30942443,76.65188138,690.1034386,108.849729,"16th June 2017, 9:50 am",6/16/2017 4:20,2017_RVS_Mysore_Tumkur,,,,,,,,,,,,,,2,66400196,Camera-20170616-095052.zip,,,,,,,,,,,
Camera,95193,0,Camera-20170616-095052-000000020,,Copyright By CE Info Systems Ltd All Rights Reserved,www.mapmyindia.com,,,,,,,,,Mysuru,,Mysuru District,Karnataka,570001,India,91,12.30939525,76.6520247,690.6681917,198.7549832,"16th June 2017, 9:50 am",6/16/2017 4:20,2017_RVS_Mysore_Tumkur,,,,,,,,,,,,,,2,66400196,Camera-20170616-095052.zip,,,,,,,,,,,
Camera,95194,0,Camera-20170616-095052-000000021,,Copyright By CE Info Systems Ltd All Rights Reserved,www.mapmyindia.com,,,,,,,,,Mysuru,,Mysuru District,Karnataka,570001,India,91,12.30856713,76.65173689,690.2074452,72.00041599,"16th June 2017, 9:50 am",6/16/2017 4:21,2017_RVS_Mysore_Tumkur,,,,,,,,,,,,,,5,66403984,Camera-20170616-095052.zip,,,,,,,,,,,
Camera,95195,0,Camera-20170616-095052-000000023,,Copyright By CE Info Systems Ltd All Rights Reserved,www.mapmyindia.com,,,,,,,,,Mysuru,,Mysuru District,Karnataka,570001,India,91,12.30862897,76.65195208,690.2197912,79.41913829,"16th June 2017, 9:50 am",6/16/2017 4:21,2017_RVS_Mysore_Tumkur,,,,,,,,,,,,,,5,66403984,Camera-20170616-095052.zip,,,,,,,,,,,
Camera,95196,0,Camera-20170616-095052-000000026,,Copyright By CE Info Systems Ltd All Rights Reserved,www.mapmyindia.com,,,,,,,,,Mysuru,,Mysuru District,Karnataka,570001,India,91,12.30865723,76.65212532,690.2784239,342.7834353,"16th June 2017, 9:50 am",6/16/2017 4:21,2017_RVS_Mysore_Tumkur,,,,,,,,,,,,,,5,66403984,Camera-20170616-095052.zip,,,,,,,,,,,
Camera,95197,0,Camera-20170616-095052-000000029,,Copyright By CE Info Systems Ltd All Rights Reserved,www.mapmyindia.com,,,,,,,,,Mysuru,,Mysuru District,Karnataka,570001,India,91,12.30867269,76.65218731,691.2089438,74.07618529,"16th June 2017, 9:51 am",6/16/2017 4:21,2017_RVS_Mysore_Tumkur,,,,,,,,,,,,,,3,66403986,Camera-20170616-095052.zip,,,,,,,,,,,
Camera,95198,0,Camera-20170616-095052-000000032,,Copyright By CE Info Systems Ltd All Rights Reserved,www.mapmyindia.com,,,,,,,,,Mysuru,,Mysuru District,Karnataka,570001,India,91,12.30872297,76.65232543,692.7888389,65.65239961,"16th June 2017, 9:51 am",6/16/2017 4:21,2017_RVS_Mysore_Tumkur,,,,,,,,,,,,,,2,66412836,Camera-20170616-095052.zip,,,,,,,,,,,
Camera,95199,0,Camera-20170616-095052-000000035,,Copyright By CE Info Systems Ltd All Rights Reserved,www.mapmyindia.com,,,,,,,,,Mysuru,,Mysuru District,Karnataka,570001,India,91,12.30877937,76.65245628,695.9594932,67.73716282,"16th June 2017, 9:51 am",6/16/2017 4:21,2017_RVS_Mysore_Tumkur,,,,,,,,,,,,,,2,66412836,Camera-20170616-095052.zip,,,,,,,,,,,
Camera,95200,0,Camera-20170616-095052-000000038,,Copyright By CE Info Systems Ltd All Rights Reserved,www.mapmyindia.com,,,,,,,,,Mysuru,,Mysuru District,Karnataka,570001,India,91,12.30881816,76.65258843,710.8858017,92.07668095,"16th June 2017, 9:51 am",6/16/2017 4:21,2017_RVS_Mysore_Tumkur,,,,,,,,,,,,,,2,66412843,Camera-20170616-095052.zip,,,,,,,,,,,
Camera,95201,0,Camera-20170616-095052-000000041,,Copyright By CE Info Systems Ltd All Rights Reserved,www.mapmyindia.com,,,,,,,,,Mysuru,,Mysuru District,Karnataka,570001,India,91,12.30882668,76.65272804,715.1155549,71.48626739,"16th June 2017, 9:51 am",6/16/2017 4:21,2017_RVS_Mysore_Tumkur,,,,,,,,,,,,,,2,66412843,Camera-20170616-095052.zip,,,,,,,,,,,
Camera,95202,0,Camera-20170616-095052-000000044,,Copyright By CE Info Systems Ltd All Rights Reserved,www.mapmyindia.com,,,,,,,,,Mysuru,,Mysuru District,Karnataka,570001,India,91,12.3088757,76.65286065,717.2398225,69.54745249,"16th June 2017, 9:51 am",6/16/2017 4:22,2017_RVS_Mysore_Tumkur,,,,,,,,,,,,,,2,212282915,Camera-20170616-095052.zip,,,,,,,,,,,
Camera,95203,0,Camera-20170616-095052-000000046,,Copyright By CE Info Systems Ltd All Rights Reserved,www.mapmyindia.com,,,,,,,,,Mysuru,,Mysuru District,Karnataka,570001,India,91,12.30892586,76.65305199,719.1345147,95.41915207,"16th June 2017, 9:51 am",6/16/2017 4:22,2017_RVS_Mysore_Tumkur,,,,,,,,,,,,,,2,66421777,Camera-20170616-095052.zip,,,,,,,,,,,
Camera,95204,0,Camera-20170616-095052-000000049,,Copyright By CE Info Systems Ltd All Rights Reserved,www.mapmyindia.com,,,,,,,,,Mysuru,,Mysuru District,Karnataka,570001,India,91,12.30889435,76.65319023,720.3630862,122.2889922,"16th June 2017, 9:51 am",6/16/2017 4:22,2017_RVS_Mysore_Tumkur,,,,,,,,,,,,,,2,66412847,Camera-20170616-095052.zip,,,,,,,,,,,
Camera,95205,0,Camera-20170616-095052-000000052,,Copyright By CE Info Systems Ltd All Rights Reserved,www.mapmyindia.com,,,,,,,,,Mysuru,,Mysuru District,Karnataka,570001,India,91,12.30881822,76.6533104,721.6233129,119.912372,"16th June 2017, 9:51 am",6/16/2017 4:22,2017_RVS_Mysore_Tumkur,,,,,,,,,,,,,,2,66412847,Camera-20170616-095052.zip,,,,,,,,,,,
Camera,95206,0,Camera-20170616-095052-000000055,,Copyright By CE Info Systems Ltd All Rights Reserved,www.mapmyindia.com,,,,,,,,,Mysuru,,Mysuru District,Karnataka,570001,India,91,12.30875788,76.65343597,722.7317062,106.2263776,"16th June 2017, 9:51 am",6/16/2017 4:22,2017_RVS_Mysore_Tumkur,,,,,,,,,,,,,,2,66412847,Camera-20170616-095052.zip,,,,,,,,,,,
Camera,95207,0,Camera-20170616-095052-000000058,,Copyright By CE Info Systems Ltd All Rights Reserved,www.mapmyindia.com,,,,,,,,,Mysuru,,Mysuru District,Karnataka,570001,India,91,12.30872637,76.65357657,723.4859124,99.55176467,"16th June 2017, 9:51 am",6/16/2017 4:22,2017_RVS_Mysore_Tumkur,,,,,,,,,,,,,,2,66412847,Camera-20170616-095052.zip,,,,,,,,,,,
Camera,95208,0,Camera-20170616-095052-000000061,,Copyright By CE Info Systems Ltd All Rights Reserved,www.mapmyindia.com,,,,,,,,,Mysuru,,Mysuru District,Karnataka,570001,India,91,12.30870203,76.6537164,724.1178873,100.9021942,"16th June 2017, 9:51 am",6/16/2017 4:22,2017_RVS_Mysore_Tumkur,,,,,,,,,,,,,,2,66412848,Camera-20170616-095052.zip,,,,,,,,,,,
Camera,95209,0,Camera-20170616-095052-000000064,,Copyright By CE Info Systems Ltd All Rights Reserved,www.mapmyindia.com,,,,,,,,,Mysuru,,Mysuru District,Karnataka,570001,India,91,12.30867631,76.65385674,724.7065662,100.1316747,"16th June 2017, 9:52 am",6/16/2017 4:22,2017_RVS_Mysore_Tumkur,,,,,,,,,,,,,,2,66412848,Camera-20170616-095052.zip,,,,,,,,,,,
Camera,95210,0,Camera-20170616-095052-000000067,,Copyright By CE Info Systems Ltd All Rights Reserved,www.mapmyindia.com,,,,,,,,,Mysuru,,Mysuru District,Karnataka,570001,India,91,12.30865252,76.65399654,725.2713804,98.85720042,"16th June 2017, 9:52 am",6/16/2017 4:22,2017_RVS_Mysore_Tumkur,,,,,,,,,,,,,,2,66412848,Camera-20170616-095052.zip,,,,,,,,,,,
Camera,95211,0,Camera-20170616-095052-000000070,,Copyright By CE Info Systems Ltd All Rights Reserved,www.mapmyindia.com,,,,,,,,,Mysuru,,Mysuru District,Karnataka,570001,India,91,12.30862926,76.65414009,726.0078475,99.97421891,"16th June 2017, 9:52 am",6/16/2017 4:22,2017_RVS_Mysore_Tumkur,,,,,,,,,,,,,,2,66402206,Camera-20170616-095052.zip,,,,,,,,,,,
Camera,95212,0,Camera-20170616-095052-000000073,,Copyright By CE Info Systems Ltd All Rights Reserved,www.mapmyindia.com,,,,,,,,,Mysuru,,Mysuru District,Karnataka,570001,India,91,12.30860434,76.6542851,726.6637871,100.1237233,"16th June 2017, 9:52 am",6/16/2017 4:22,2017_RVS_Mysore_Tumkur,,,,,,,,,,,,,,5,212282682,Camera-20170616-095052.zip,,,,,,,,,,,
Camera,95213,0,Camera-20170616-095052-000000076,,Copyright By CE Info Systems Ltd All Rights Reserved,www.mapmyindia.com,,,,,,,,,Mysuru,,Mysuru District,Karnataka,570001,India,91,12.30858008,76.65442611,727.2094583,99.90846625,"16th June 2017, 9:52 am",6/16/2017 4:22,2017_RVS_Mysore_Tumkur,,,,,,,,,,,,,,2,66402206,Camera-20170616-095052.zip,,,,,,,,,,,
Camera,95214,0,Camera-20170616-095052-000000079,,Copyright By CE Info Systems Ltd All Rights Reserved,www.mapmyindia.com,,,,,,,,,Mysuru,,Mysuru District,Karnataka,570001,India,91,12.30855322,76.65456794,727.3606372,104.203457,"16th June 2017, 9:52 am",6/16/2017 4:22,2017_RVS_Mysore_Tumkur,,,,,,,,,,,,,,2,66402206,Camera-20170616-095052.zip,,,,,,,,,,,
Camera,95215,0,Camera-20170616-095052-000000082,,Copyright By CE Info Systems Ltd All Rights Reserved,www.mapmyindia.com,,,,,,,,,Mysuru,,Mysuru District,Karnataka,570001,India,91,12.30851823,76.65470745,727.5626584,101.1918822,"16th June 2017, 9:52 am",6/16/2017 4:22,2017_RVS_Mysore_Tumkur,,,,,,,,,,,,,,2,66402206,Camera-20170616-095052.zip,,,,,,,,,,,
Camera,95216,0,Camera-20170616-095052-000000085,,Copyright By CE Info Systems Ltd All Rights Reserved,www.mapmyindia.com,,,,,,,,,Mysuru,,Mysuru District,Karnataka,570001,India,91,12.30849109,76.65485139,727.8659979,101.0957769,"16th June 2017, 9:52 am",6/16/2017 4:22,2017_RVS_Mysore_Tumkur,,,,,,,,,,,,,,2,66402206,Camera-20170616-095052.zip,,,,,,,,,,,
Camera,95217,0,Camera-20170616-095052-000000088,,Copyright By CE Info Systems Ltd All Rights Reserved,www.mapmyindia.com,,,,,,,,,Mysuru,,Mysuru District,Karnataka,570001,India,91,12.3084666,76.65499165,728.1504997,99.09573437,"16th June 2017, 9:52 am",6/16/2017 4:22,2017_RVS_Mysore_Tumkur,,,,,,,,,,,,,,2,66402206,Camera-20170616-095052.zip,,,,,,,,,,,
Camera,95218,0,Camera-20170616-095052-000000091,,Copyright By CE Info Systems Ltd All Rights Reserved,www.mapmyindia.com,,,,,,,,,Mysuru,,Mysuru District,Karnataka,570001,India,91,12.30845128,76.65513841,728.357953,93.89440653,"16th June 2017, 9:52 am",6/16/2017 4:22,2017_RVS_Mysore_Tumkur,,,,,,,,,,,,,,2,66402206,Camera-20170616-095052.zip,,,,,,,,,,,
Camera,95219,0,Camera-20170616-095052-000000094,,Copyright By CE Info Systems Ltd All Rights Reserved,www.mapmyindia.com,,,,,,,,,Mysuru,,Mysuru District,Karnataka,570001,India,91,12.30844236,76.65528313,728.274718,95.21507602,"16th June 2017, 9:52 am",6/16/2017 4:22,2017_RVS_Mysore_Tumkur,,,,,,,,,,,,,,2,66402206,Camera-20170616-095052.zip,,,,,,,,,,,
Camera,95220,0,Camera-20170616-095052-000000096,,Copyright By CE Info Systems Ltd All Rights Reserved,www.mapmyindia.com,,,,,,,,,Mysuru,,Mysuru District,Karnataka,570001,India,91,12.30843424,76.65542686,728.672562,89.45445232,"16th June 2017, 9:52 am",6/16/2017 4:22,2017_RVS_Mysore_Tumkur,,,,,,,,,,,,,,2,66402206,Camera-20170616-095052.zip,,,,,,,,,,,
Camera,95221,0,Camera-20170616-095052-000000098,,Copyright By CE Info Systems Ltd All Rights Reserved,www.mapmyindia.com,,,,,,,,,Mysuru,,Mysuru District,Karnataka,570001,India,91,12.30843592,76.65556848,729.1280232,87.61690528,"16th June 2017, 9:52 am",6/16/2017 4:22,2017_RVS_Mysore_Tumkur,,,,,,,,,,,,,,2,66402206,Camera-20170616-095052.zip,,,,,,,,,,,
Camera,95222,0,Camera-20170616-095052-000000101,,Copyright By CE Info Systems Ltd All Rights Reserved,www.mapmyindia.com,,,,,,,,,Mysuru,,Mysuru District,Karnataka,570001,India,91,12.30844048,76.65572052,729.4040411,89.57871771,"16th June 2017, 9:52 am",6/16/2017 4:22,2017_RVS_Mysore_Tumkur,,,,,,,,,,,,,,3,66416257,Camera-20170616-095052.zip,,,,,,,,,,,
Camera,95223,0,Camera-20170616-095052-000000104,,Copyright By CE Info Systems Ltd All Rights Reserved,www.mapmyindia.com,,,,,,,,,Mysuru,,Mysuru District,Karnataka,570001,India,91,12.30843741,76.65586369,729.7017875,99.10512373,"16th June 2017, 9:52 am",6/16/2017 4:22,2017_RVS_Mysore_Tumkur,,,,,,,,,,,,,,3,66400768,Camera-20170616-095052.zip,,,,,,,,,,,
Camera,95224,0,Camera-20170616-095052-000000107,,Copyright By CE Info Systems Ltd All Rights Reserved,www.mapmyindia.com,,,,,,,,,Mysuru,,Mysuru District,Karnataka,570001,India,91,12.30839661,76.65599958,730.0961305,118.1727599,"16th June 2017, 9:52 am",6/16/2017 4:22,2017_RVS_Mysore_Tumkur,,,,,,,,,,,,,,3,66400768,Camera-20170616-095052.zip,,,,,,,,,,,
Camera,95225,0,Camera-20170616-095052-000000110,,Copyright By CE Info Systems Ltd All Rights Reserved,www.mapmyindia.com,,,,,,,,,Mysuru,,Mysuru District,Karnataka,570001,India,91,12.30832839,76.65612172,730.4613597,120.7871473,"16th June 2017, 9:52 am",6/16/2017 4:22,2017_RVS_Mysore_Tumkur,,,,,,,,,,,,,,2,212282690,Camera-20170616-095052.zip,,,,,,,,,,,
Camera,95226,0,Camera-20170616-095052-000000113,,Copyright By CE Info Systems Ltd All Rights Reserved,www.mapmyindia.com,,,,,,,,,Mysuru,,Mysuru District,Karnataka,570001,India,91,12.30825667,76.65624791,730.8119794,118.2588751,"16th June 2017, 9:52 am",6/16/2017 4:22,2017_RVS_Mysore_Tumkur,,,,,,,,,,,,,,2,66416275,Camera-20170616-095052.zip,,,,,,,,,,,
Camera,95227,0,Camera-20170616-095052-000000116,,Copyright By CE Info Systems Ltd All Rights Reserved,www.mapmyindia.com,,,,,,,,,Mysuru,,Mysuru District,Karnataka,570001,India,91,12.30819475,76.65637774,731.1599967,110.4848467,"16th June 2017, 9:52 am",6/16/2017 4:22,2017_RVS_Mysore_Tumkur,,,,,,,,,,,,,,2,66416275,Camera-20170616-095052.zip,,,,,,,,,,,
Camera,95228,0,Camera-20170616-095052-000000119,,Copyright By CE Info Systems Ltd All Rights Reserved,www.mapmyindia.com,,,,,,,,,Mysuru,,Mysuru District,Karnataka,570001,India,91,12.30814922,76.6565175,731.4116784,105.2696935,"16th June 2017, 9:52 am",6/16/2017 4:22,2017_RVS_Mysore_Tumkur,,,,,,,,,,,,,,2,66416275,Camera-20170616-095052.zip,,,,,,,,,,,
Camera,95229,0,Camera-20170616-095052-000000122,,Copyright By CE Info Systems Ltd All Rights Reserved,www.mapmyindia.com,,,,,,,,,Mysuru,,Mysuru District,Karnataka,570001,India,91,12.30811376,76.65665711,731.5976084,103.7625356,"16th June 2017, 9:52 am",6/16/2017 4:22,2017_RVS_Mysore_Tumkur,,,,,,,,,,,,,,2,66416275,Camera-20170616-095052.zip,,,,,,,,,,,
Camera,95230,0,Camera-20170616-095052-000000125,,Copyright By CE Info Systems Ltd All Rights Reserved,www.mapmyindia.com,,,,,,,,,Mysuru,,Mysuru District,Karnataka,570001,India,91,12.30807953,76.65679758,731.7803425,104.7521093,"16th June 2017, 9:52 am",6/16/2017 4:23,2017_RVS_Mysore_Tumkur,,,,,,,,,,,,,,2,66416275,Camera-20170616-095052.zip,,,,,,,,,,,
Camera,95231,0,Camera-20170616-095052-000000128,,Copyright By CE Info Systems Ltd All Rights Reserved,www.mapmyindia.com,,,,,,,,,Mysuru,,Mysuru District,Karnataka,570001,India,91,12.30804348,76.6569359,731.9486723,105.6591115,"16th June 2017, 9:52 am",6/16/2017 4:23,2017_RVS_Mysore_Tumkur,,,,,,,,,,,,,,2,66416275,Camera-20170616-095052.zip,,,,,,,,,,,
Camera,95232,0,Camera-20170616-095052-000000131,,Copyright By CE Info Systems Ltd All Rights Reserved,www.mapmyindia.com,,,,,,,,,Mysuru,,Mysuru District,Karnataka,570001,India,91,12.30800465,76.65708057,732.0435157,105.2301351,"16th June 2017, 9:52 am",6/16/2017 4:23,2017_RVS_Mysore_Tumkur,,,,,,,,,,,,,,2,66416275,Camera-20170616-095052.zip,,,,,,,,,,,
Camera,95233,0,Camera-20170616-095052-000000134,,Copyright By CE Info Systems Ltd All Rights Reserved,www.mapmyindia.com,,,,,,,,,Mysuru,,Mysuru District,Karnataka,570001,India,91,12.30796828,76.65721553,732.091118,105.274231,"16th June 2017, 9:52 am",6/16/2017 4:23,2017_RVS_Mysore_Tumkur,,,,,,,,,,,,,,2,66416275,Camera-20170616-095052.zip,,,,,,,,,,,
Camera,95234,0,Camera-20170616-095052-000000137,,Copyright By CE Info Systems Ltd All Rights Reserved,www.mapmyindia.com,,,,,,,,,Mysuru,,Mysuru District,Karnataka,570001,India,91,12.30793038,76.6573541,732.140063,105.7725903,"16th June 2017, 9:52 am",6/16/2017 4:23,2017_RVS_Mysore_Tumkur,,,,,,,,,,,,,,2,66416275,Camera-20170616-095052.zip,,,,,,,,,,,
Camera,95235,0,Camera-20170616-095052-000000140,,Copyright By CE Info Systems Ltd All Rights Reserved,www.mapmyindia.com,,,,,,,,,Mysuru,,Mysuru District,Karnataka,570001,India,91,12.30789177,76.65749403,732.1572087,105.9563402,"16th June 2017, 9:52 am",6/16/2017 4:23,2017_RVS_Mysore_Tumkur,,,,,,,,,,,,,,2,66416275,Camera-20170616-095052.zip,,,,,,,,,,,
Camera,95236,0,Camera-20170616-095052-000000143,,Copyright By CE Info Systems Ltd All Rights Reserved,www.mapmyindia.com,,,,,,,,,Mysuru,,Mysuru District,Karnataka,570001,India,91,12.30785209,76.65763419,732.1966933,105.7245933,"16th June 2017, 9:52 am",6/16/2017 4:23,2017_RVS_Mysore_Tumkur,,,,,,,,,,,,,,2,66416275,Camera-20170616-095052.zip,,,,,,,,,,,
Camera,95237,0,Camera-20170616-095052-000000146,,Copyright By CE Info Systems Ltd All Rights Reserved,www.mapmyindia.com,,,,,,,,,Mysuru,,Mysuru District,Karnataka,570001,India,91,12.3078137,76.65777493,732.2253136,105.3424445,"16th June 2017, 9:52 am",6/16/2017 4:23,2017_RVS_Mysore_Tumkur,,,,,,,,,,,,,,2,66416275,Camera-20170616-095052.zip,,,,,,,,,,,
Camera,95238,0,Camera-20170616-095052-000000149,,Copyright By CE Info Systems Ltd All Rights Reserved,www.mapmyindia.com,,,,,,,,,Mysuru,,Mysuru District,Karnataka,570001,India,91,12.30777669,76.65791487,732.2018099,104.8070974,"16th June 2017, 9:52 am",6/16/2017 4:23,2017_RVS_Mysore_Tumkur,,,,,,,,,,,,,,2,66416275,Camera-20170616-095052.zip,,,,,,,,,,,
Camera,95239,0,Camera-20170616-095052-000000152,,Copyright By CE Info Systems Ltd All Rights Reserved,www.mapmyindia.com,,,,,,,,,Mysuru,,Mysuru District,Karnataka,570001,India,91,12.30774099,76.6580554,732.0817485,104.3485378,"16th June 2017, 9:52 am",6/16/2017 4:23,2017_RVS_Mysore_Tumkur,,,,,,,,,,,,,,2,66416275,Camera-20170616-095052.zip,,,,,,,,,,,
Camera,95240,0,Camera-20170616-095052-000000155,,Copyright By CE Info Systems Ltd All Rights Reserved,www.mapmyindia.com,,,,,,,,,Mysuru,,Mysuru District,Karnataka,570001,India,91,12.30770539,76.65819658,731.9549123,104.7151997,"16th June 2017, 9:52 am",6/16/2017 4:23,2017_RVS_Mysore_Tumkur,,,,,,,,,,,,,,2,66416275,Camera-20170616-095052.zip,,,,,,,,,,,
Camera,95241,0,Camera-20170616-095052-000000158,,Copyright By CE Info Systems Ltd All Rights Reserved,www.mapmyindia.com,,,,,,,,,Mysuru,,Mysuru District,Karnataka,570001,India,91,12.30766889,76.6583391,731.852185,104.8947961,"16th June 2017, 9:52 am",6/16/2017 4:23,2017_RVS_Mysore_Tumkur,,,,,,,,,,,,,,2,66416275,Camera-20170616-095052.zip,,,,,,,,,,,
Camera,95242,0,Camera-20170616-095052-000000161,,Copyright By CE Info Systems Ltd All Rights Reserved,www.mapmyindia.com,,,,,,,,,Mysuru,,Mysuru District,Karnataka,570001,India,91,12.3076315,76.65848254,731.7968819,104.1923257,"16th June 2017, 9:52 am",6/16/2017 4:23,2017_RVS_Mysore_Tumkur,,,,,,,,,,,,,,2,66416275,Camera-20170616-095052.zip,,,,,,,,,,,
Camera,95243,0,Camera-20170616-095052-000000164,,Copyright By CE Info Systems Ltd All Rights Reserved,www.mapmyindia.com,,,,,,,,,Mysuru,,Mysuru District,Karnataka,570001,India,91,12.30759571,76.65862716,731.7526263,104.6557264,"16th June 2017, 9:53 am",6/16/2017 4:23,2017_RVS_Mysore_Tumkur,,,,,,,,,,,,,,2,66416275,Camera-20170616-095052.zip,,,,,,,,,,,
Camera,95244,0,Camera-20170616-095052-000000167,,Copyright By CE Info Systems Ltd All Rights Reserved,www.mapmyindia.com,,,,,,,,,Mysuru,,Mysuru District,Karnataka,570001,India,91,12.30755859,76.65877222,731.6665005,104.770244,"16th June 2017, 9:53 am",6/16/2017 4:23,2017_RVS_Mysore_Tumkur,,,,,,,,,,,,,,2,66416275,Camera-20170616-095052.zip,,,,,,,,,,,
Camera,95245,0,Camera-20170616-095052-000000170,,Copyright By CE Info Systems Ltd All Rights Reserved,www.mapmyindia.com,,,,,,,,,Mysuru,,Mysuru District,Karnataka,570001,India,91,12.30752109,76.65891744,731.6626501,104.6861861,"16th June 2017, 9:53 am",6/16/2017 4:23,2017_RVS_Mysore_Tumkur,,,,,,,,,,,,,,2,66416275,Camera-20170616-095052.zip,,,,,,,,,,,
Camera,95246,0,Camera-20170616-095052-000000173,,Copyright By CE Info Systems Ltd All Rights Reserved,www.mapmyindia.com,,,,,,,,,Mysuru,,Mysuru District,Karnataka,570001,India,91,12.30748372,76.65906271,731.7006088,104.9462596,"16th June 2017, 9:53 am",6/16/2017 4:23,2017_RVS_Mysore_Tumkur,,,,,,,,,,,,,,2,66416275,Camera-20170616-095052.zip,,,,,,,,,,,
Camera,95247,0,Camera-20170616-095052-000000176,,Copyright By CE Info Systems Ltd All Rights Reserved,www.mapmyindia.com,,,,,,,,,Mysuru,,Mysuru District,Karnataka,570001,India,91,12.3074452,76.65920799,731.6956598,105.4874886,"16th June 2017, 9:53 am",6/16/2017 4:23,2017_RVS_Mysore_Tumkur,,,,,,,,,,,,,,2,66416275,Camera-20170616-095052.zip,,,,,,,,,,,
Camera,95248,0,Camera-20170616-095052-000000179,,Copyright By CE Info Systems Ltd All Rights Reserved,www.mapmyindia.com,,,,,,,,,Mysuru,,Mysuru District,Karnataka,570001,India,91,12.30740748,76.6593502,731.5416019,103.9411484,"16th June 2017, 9:53 am",6/16/2017 4:23,2017_RVS_Mysore_Tumkur,,,,,,,,,,,,,,2,66416275,Camera-20170616-095052.zip,,,,,,,,,,,
Camera,95249,0,Camera-20170616-095052-000000182,,Copyright By CE Info Systems Ltd All Rights Reserved,www.mapmyindia.com,,,,,,,,,Mysuru,,Mysuru District,Karnataka,570001,India,91,12.30737203,76.65949431,731.4076855,104.0537202,"16th June 2017, 9:53 am",6/16/2017 4:23,2017_RVS_Mysore_Tumkur,,,,,,,,,,,,,,2,66416275,Camera-20170616-095052.zip,,,,,,,,,,,
Camera,95250,0,Camera-20170616-095052-000000185,,Copyright By CE Info Systems Ltd All Rights Reserved,www.mapmyindia.com,,,,,,,,,Mysuru,,Mysuru District,Karnataka,570001,India,91,12.30733831,76.65963194,731.3269529,102.4960118,"16th June 2017, 9:53 am",6/16/2017 4:23,2017_RVS_Mysore_Tumkur,,,,,,,,,,,,,,2,66416275,Camera-20170616-095052.zip,,,,,,,,,,,
Camera,95251,0,Camera-20170616-095052-000000188,,Copyright By CE Info Systems Ltd All Rights Reserved,www.mapmyindia.com,,,,,,,,,Mysuru,,Mysuru District,Karnataka,570001,India,91,12.30731771,76.65977489,731.1979805,91.45237813,"16th June 2017, 9:53 am",6/16/2017 4:23,2017_RVS_Mysore_Tumkur,,,,,,,,,,,,,,2,66416275,Camera-20170616-095052.zip,,,,,,,,,,,
Camera,95252,0,Camera-20170616-095052-000000191,,Copyright By CE Info Systems Ltd All Rights Reserved,www.mapmyindia.com,,,,,,,,,Mysuru,,Mysuru District,Karnataka,570001,India,91,12.30731823,76.65991419,730.7525628,84.03926286,"16th June 2017, 9:53 am",6/16/2017 4:23,2017_RVS_Mysore_Tumkur,,,,,,,,,,,,,,1,212282686,Camera-20170616-095052.zip,,,,,,,,,,,
Camera,95253,0,Camera-20170616-095052-000000194,,Copyright By CE Info Systems Ltd All Rights Reserved,www.mapmyindia.com,,,,,,,,,Mysuru,,Mysuru District,Karnataka,570010,India,91,12.30732744,76.66005617,731.2507707,91.78753258,"16th June 2017, 9:53 am",6/16/2017 4:23,2017_RVS_Mysore_Tumkur,,,,,,,,,,,,,,1,212282686,Camera-20170616-095052.zip,,,,,,,,,,,
Camera,95254,0,Camera-20170616-095052-000000197,,Copyright By CE Info Systems Ltd All Rights Reserved,www.mapmyindia.com,,,,,,,,,Mysuru,,Mysuru District,Karnataka,570010,India,91,12.30730685,76.66019722,731.6210048,115.4276308,"16th June 2017, 9:53 am",6/16/2017 4:23,2017_RVS_Mysore_Tumkur,,,,,,,,,,,,,,1,218803943,Camera-20170616-095052.zip,,,,,,,,,,,
Camera,95255,0,Camera-20170616-095052-000000200,,Copyright By CE Info Systems Ltd All Rights Reserved,www.mapmyindia.com,,,,,,,,,Mysuru,,Mysuru District,Karnataka,570010,India,91,12.307218,76.66030345,731.8097593,165.7611858,"16th June 2017, 9:53 am",6/16/2017 4:23,2017_RVS_Mysore_Tumkur,,,,,,,,,,,,,,1,66416283,Camera-20170616-095052.zip,,,,,,,,,,,
Camera,95256,0,Camera-20170616-095052-000000203,,Copyright By CE Info Systems Ltd All Rights Reserved,www.mapmyindia.com,,,,,,,,,Mysuru,,Mysuru District,Karnataka,570010,India,91,12.30708126,76.66030307,731.7532745,200.9622089,"16th June 2017, 9:53 am",6/16/2017 4:23,2017_RVS_Mysore_Tumkur,,,,,,,,,,,,,,1,212280996,Camera-20170616-095052.zip,,,,,,,,,,,
Camera,95257,0,Camera-20170616-095052-000000206,,Copyright By CE Info Systems Ltd All Rights Reserved,www.mapmyindia.com,,,,,,,,,Mysuru,,Mysuru District,Karnataka,570004,India,91,12.30695691,76.66023997,731.5365556,209.5762195,"16th June 2017, 9:53 am",6/16/2017 4:23,2017_RVS_Mysore_Tumkur,,,,,,,,,,,,,,1,212280996,Camera-20170616-095052.zip,,,,,,,,,,,
Camera,95258,0,Camera-20170616-095052-000000209,,Copyright By CE Info Systems Ltd All Rights Reserved,www.mapmyindia.com,,,,,,,,,Mysuru,,Mysuru District,Karnataka,570004,India,91,12.30683494,76.66017531,731.5640772,204.9953847,"16th June 2017, 9:53 am",6/16/2017 4:23,2017_RVS_Mysore_Tumkur,,,,,,,,,,,,,,1,66416272,Camera-20170616-095052.zip,,,,,,,,,,,
Camera,95259,0,Camera-20170616-095052-000000212,,Copyright By CE Info Systems Ltd All Rights Reserved,www.mapmyindia.com,,,,,,,,,Mysuru,,Mysuru District,Karnataka,570004,India,91,12.30671225,76.66011089,731.5763012,209.0791162,"16th June 2017, 9:53 am",6/16/2017 4:23,2017_RVS_Mysore_Tumkur,,,,,,,,,,,,,,1,66416272,Camera-20170616-095052.zip,,,,,,,,,,,
Camera,95260,0,Camera-20170616-095052-000000215,,Copyright By CE Info Systems Ltd All Rights Reserved,www.mapmyindia.com,,,,,,,,,Mysuru,,Mysuru District,Karnataka,570004,India,91,12.30658929,76.66004373,731.6703512,204.7261347,"16th June 2017, 9:53 am",6/16/2017 4:24,2017_RVS_Mysore_Tumkur,,,,,,,,,,,,,,1,66416272,Camera-20170616-095052.zip,,,,,,,,,,,
Camera,95261,0,Camera-20170616-095052-000000218,,Copyright By CE Info Systems Ltd All Rights Reserved,www.mapmyindia.com,,,,,,,,,Mysuru,,Mysuru District,Karnataka,570004,India,91,12.30646162,76.65998553,731.8670013,205.8139897,"16th June 2017, 9:53 am",6/16/2017 4:24,2017_RVS_Mysore_Tumkur,,,,,,,,,,,,,,1,66416272,Camera-20170616-095052.zip,,,,,,,,,,,
Camera,95262,0,Camera-20170616-095052-000000221,,Copyright By CE Info Systems Ltd All Rights Reserved,www.mapmyindia.com,,,,,,,,,Mysuru,,Mysuru District,Karnataka,570004,India,91,12.30633785,76.65992231,731.9260392,208.7292455,"16th June 2017, 9:53 am",6/16/2017 4:24,2017_RVS_Mysore_Tumkur,,,,,,,,,,,,,,1,66416272,Camera-20170616-095052.zip,,,,,,,,,,,
Camera,95263,0,Camera-20170616-095052-000000224,,Copyright By CE Info Systems Ltd All Rights Reserved,www.mapmyindia.com,,,,,,,,,Mysuru,,Mysuru District,Karnataka,570004,India,91,12.30620908,76.65985145,731.7956019,208.2869335,"16th June 2017, 9:53 am",6/16/2017 4:24,2017_RVS_Mysore_Tumkur,,,,,,,,,,,,,,1,212281000,Camera-20170616-095052.zip,,,,,,,,,,,
Camera,95264,0,Camera-20170616-095052-000000227,,Copyright By CE Info Systems Ltd All Rights Reserved,www.mapmyindia.com,,,,,,,,,Mysuru,,Mysuru District,Karnataka,570004,India,91,12.30608142,76.65978111,731.6013218,208.4650859,"16th June 2017, 9:53 am",6/16/2017 4:24,2017_RVS_Mysore_Tumkur,,,,,,,,,,,,,,1,212281000,Camera-20170616-095052.zip,,,,,,,,,,,
Camera,95265,0,Camera-20170616-095052-000000230,,Copyright By CE Info Systems Ltd All Rights Reserved,www.mapmyindia.com,,,,,,,,,Mysuru,,Mysuru District,Karnataka,570004,India,91,12.30595998,76.6597119,731.3723958,210.343544,"16th June 2017, 9:53 am",6/16/2017 4:24,2017_RVS_Mysore_Tumkur,,,,,,,,,,,,,,1,212281001,Camera-20170616-095052.zip,,,,,,,,,,,
Camera,95266,0,Camera-20170616-095052-000000233,,Copyright By CE Info Systems Ltd All Rights Reserved,www.mapmyindia.com,,,,,,,,,Mysuru,,Mysuru District,Karnataka,570004,India,91,12.30584102,76.65963735,731.2604742,211.1793052,"16th June 2017, 9:53 am",6/16/2017 4:24,2017_RVS_Mysore_Tumkur,,,,,,,,,,,,,,1,212280998,Camera-20170616-095052.zip,,,,,,,,,,,
Camera,95267,0,Camera-20170616-095052-000000236,,Copyright By CE Info Systems Ltd All Rights Reserved,www.mapmyindia.com,,,,,,,,,Mysuru,,Mysuru District,Karnataka,570004,India,91,12.30572233,76.65956397,731.107698,211.321625,"16th June 2017, 9:53 am",6/16/2017 4:24,2017_RVS_Mysore_Tumkur,,,,,,,,,,,,,,1,212280998,Camera-20170616-095052.zip,,,,,,,,,,,
Camera,95268,0,Camera-20170616-095052-000000239,,Copyright By CE Info Systems Ltd All Rights Reserved,www.mapmyindia.com,,,,,,,,,Mysuru,,Mysuru District,Karnataka,570004,India,91,12.30560095,76.65948913,731.1342652,210.6805574,"16th June 2017, 9:53 am",6/16/2017 4:24,2017_RVS_Mysore_Tumkur,,,,,,,,,,,,,,1,212280998,Camera-20170616-095052.zip,,,,,,,,,,,
Camera,95269,0,Camera-20170616-095052-000000242,,Copyright By CE Info Systems Ltd All Rights Reserved,www.mapmyindia.com,,,,,,,,,Mysuru,,Mysuru District,Karnataka,570004,India,91,12.30547847,76.6594133,731.1651438,210.3695482,"16th June 2017, 9:53 am",6/16/2017 4:24,2017_RVS_Mysore_Tumkur,,,,,,,,,,,,,,1,212280998,Camera-20170616-095052.zip,,,,,,,,,,,
Camera,95270,0,Camera-20170616-095052-000000245,,Copyright By CE Info Systems Ltd All Rights Reserved,www.mapmyindia.com,,,,,,,,,Mysuru,,Mysuru District,Karnataka,570004,India,91,12.30535832,76.65934104,731.1599117,210.5680374,"16th June 2017, 9:54 am",6/16/2017 4:24,2017_RVS_Mysore_Tumkur,,,,,,,,,,,,,,1,212280998,Camera-20170616-095052.zip,,,,,,,,,,,
Camera,95271,0,Camera-20170616-095052-000000248,,Copyright By CE Info Systems Ltd All Rights Reserved,www.mapmyindia.com,,,,,,,,,Mysuru,,Mysuru District,Karnataka,570004,India,91,12.30523727,76.65926844,731.0250409,209.5142763,"16th June 2017, 9:54 am",6/16/2017 4:24,2017_RVS_Mysore_Tumkur,,,,,,,,,,,,,,1,212280998,Camera-20170616-095052.zip,,,,,,,,,,,
Camera,95272,0,Camera-20170616-095052-000000251,,Copyright By CE Info Systems Ltd All Rights Reserved,www.mapmyindia.com,,,,,,,,,Mysuru,,Mysuru District,Karnataka,570004,India,91,12.30511598,76.65919565,730.7580069,209.684804,"16th June 2017, 9:54 am",6/16/2017 4:24,2017_RVS_Mysore_Tumkur,,,,,,,,,,,,,,1,212280998,Camera-20170616-095052.zip,,,,,,,,,,,
Camera,95273,0,Camera-20170616-095052-000000254,,Copyright By CE Info Systems Ltd All Rights Reserved,www.mapmyindia.com,,,,,,,,,Mysuru,,Mysuru District,Karnataka,570004,India,91,12.30499362,76.65912647,730.5835243,208.3515741,"16th June 2017, 9:54 am",6/16/2017 4:24,2017_RVS_Mysore_Tumkur,,,,,,,,,,,,,,1,212281001,Camera-20170616-095052.zip,,,,,,,,,,,
Camera,95274,0,Camera-20170616-095052-000000257,,Copyright By CE Info Systems Ltd All Rights Reserved,www.mapmyindia.com,,,,,,,,,Mysuru,,Mysuru District,Karnataka,570004,India,91,12.30487009,76.65905812,730.5464708,208.2121638,"16th June 2017, 9:54 am",6/16/2017 4:24,2017_RVS_Mysore_Tumkur,,,,,,,,,,,,,,1,212280998,Camera-20170616-095052.zip,,,,,,,,,,,
Camera,95275,0,Camera-20170616-095052-000000260,,Copyright By CE Info Systems Ltd All Rights Reserved,www.mapmyindia.com,,,,,,,,,Mysuru,,Mysuru District,Karnataka,570004,India,91,12.30474885,76.65899236,730.4521884,206.4367144,"16th June 2017, 9:54 am",6/16/2017 4:24,2017_RVS_Mysore_Tumkur,,,,,,,,,,,,,,1,66398499,Camera-20170616-095052.zip,,,,,,,,,,,
Camera,95276,0,Camera-20170616-095052-000000263,,Copyright By CE Info Systems Ltd All Rights Reserved,www.mapmyindia.com,,,,,,,,,Mysuru,,Mysuru District,Karnataka,570004,India,91,12.30462577,76.6589316,730.3177838,207.9917779,"16th June 2017, 9:54 am",6/16/2017 4:24,2017_RVS_Mysore_Tumkur,,,,,,,,,,,,,,1,66398499,Camera-20170616-095052.zip,,,,,,,,,,,
Camera,95277,0,Camera-20170616-095052-000000266,,Copyright By CE Info Systems Ltd All Rights Reserved,www.mapmyindia.com,,,,,,,,,Mysuru,,Mysuru District,Karnataka,570004,India,91,12.30450769,76.65886382,730.3804838,208.5859603,"16th June 2017, 9:54 am",6/16/2017 4:24,2017_RVS_Mysore_Tumkur,,,,,,,,,,,,,,1,66398499,Camera-20170616-095052.zip,,,,,,,,,,,
Camera,95278,0,Camera-20170616-095052-000000269,,Copyright By CE Info Systems Ltd All Rights Reserved,www.mapmyindia.com,,,,,,,,,Mysuru,,Mysuru District,Karnataka,570004,India,91,12.30438843,76.65879838,730.5397193,207.6526483,"16th June 2017, 9:54 am",6/16/2017 4:24,2017_RVS_Mysore_Tumkur,,,,,,,,,,,,,,1,66398499,Camera-20170616-095052.zip,,,,,,,,,,,
Camera,95279,0,Camera-20170616-095052-000000272,,Copyright By CE Info Systems Ltd All Rights Reserved,www.mapmyindia.com,,,,,,,,,Mysuru,,Mysuru District,Karnataka,570004,India,91,12.30426699,76.65873271,730.6788964,207.8928843,"16th June 2017, 9:54 am",6/16/2017 4:24,2017_RVS_Mysore_Tumkur,,,,,,,,,,,,,,1,66398499,Camera-20170616-095052.zip,,,,,,,,,,,
Camera,95280,0,Camera-20170616-095052-000000275,,Copyright By CE Info Systems Ltd All Rights Reserved,www.mapmyindia.com,,,,,,,,,Mysuru,,Mysuru District,Karnataka,570004,India,91,12.30414443,76.65866895,730.8016939,206.4509172,"16th June 2017, 9:54 am",6/16/2017 4:24,2017_RVS_Mysore_Tumkur,,,,,,,,,,,,,,1,212282705,Camera-20170616-095052.zip,,,,,,,,,,,
Camera,95281,0,Camera-20170616-095052-000000278,,Copyright By CE Info Systems Ltd All Rights Reserved,www.mapmyindia.com,,,,,,,,,Mysuru,,Mysuru District,Karnataka,570004,India,91,12.30392978,76.65856197,731.2437833,206.3296077,"16th June 2017, 9:54 am",6/16/2017 4:24,2017_RVS_Mysore_Tumkur,,,,,,,,,,,,,,1,212282702,Camera-20170616-095052.zip,,,,,,,,,,,
Camera,95282,0,Camera-20170616-095052-000000281,,Copyright By CE Info Systems Ltd All Rights Reserved,www.mapmyindia.com,,,,,,,,,Mysuru,,Mysuru District,Karnataka,570004,India,91,12.30380835,76.65849442,731.5425673,212.043863,"16th June 2017, 9:54 am",6/16/2017 4:24,2017_RVS_Mysore_Tumkur,,,,,,,,,,,,,,1,212282702,Camera-20170616-095052.zip,,,,,,,,,,,
Camera,95283,0,Camera-20170616-095052-000000284,,Copyright By CE Info Systems Ltd All Rights Reserved,www.mapmyindia.com,,,,,,,,,Mysuru,,Mysuru District,Karnataka,570004,India,91,12.3036871,76.65842117,731.5403869,208.7716486,"16th June 2017, 9:54 am",6/16/2017 4:24,2017_RVS_Mysore_Tumkur,,,,,,,,,,,,,,1,212282702,Camera-20170616-095052.zip,,,,,,,,,,,
Camera,95284,0,Camera-20170616-095052-000000287,,Copyright By CE Info Systems Ltd All Rights Reserved,www.mapmyindia.com,,,,,,,,,Mysuru,,Mysuru District,Karnataka,570004,India,91,12.30356081,76.65834962,731.495704,209.1528015,"16th June 2017, 9:54 am",6/16/2017 4:24,2017_RVS_Mysore_Tumkur,,,,,,,,,,,,,,1,212282702,Camera-20170616-095052.zip,,,,,,,,,,,
Camera,95285,0,Camera-20170616-095052-000000290,,Copyright By CE Info Systems Ltd All Rights Reserved,www.mapmyindia.com,,,,,,,,,Mysuru,,Mysuru District,Karnataka,570004,India,91,12.30343588,76.65827827,731.6022662,210.1839516,"16th June 2017, 9:54 am",6/16/2017 4:24,2017_RVS_Mysore_Tumkur,,,,,,,,,,,,,,1,212282702,Camera-20170616-095052.zip,,,,,,,,,,,
Camera,95286,0,Camera-20170616-095052-000000293,,Copyright By CE Info Systems Ltd All Rights Reserved,www.mapmyindia.com,,,,,,,,,Mysuru,,Mysuru District,Karnataka,570004,India,91,12.30331843,76.6582085,731.7507206,210.2558937,"16th June 2017, 9:54 am",6/16/2017 4:24,2017_RVS_Mysore_Tumkur,,,,,,,,,,,,,,1,212282702,Camera-20170616-095052.zip,,,,,,,,,,,
Camera,95287,0,Camera-20170616-095052-000000296,,Copyright By CE Info Systems Ltd All Rights Reserved,www.mapmyindia.com,,,,,,,,,Mysuru,,Mysuru District,Karnataka,570004,India,91,12.30319979,76.65813515,731.9337819,211.9115697,"16th June 2017, 9:54 am",6/16/2017 4:25,2017_RVS_Mysore_Tumkur,,,,,,,,,,,,,,1,212282702,Camera-20170616-095052.zip,,,,,,,,,,,
Camera,95288,0,Camera-20170616-095052-000000299,,Copyright By CE Info Systems Ltd All Rights Reserved,www.mapmyindia.com,,,,,,,,,Mysuru,,Mysuru District,Karnataka,570004,India,91,12.30307956,76.65806133,732.0838622,210.2496646,"16th June 2017, 9:54 am",6/16/2017 4:25,2017_RVS_Mysore_Tumkur,,,,,,,,,,,,,,1,212282702,Camera-20170616-095052.zip,,,,,,,,,,,
Camera,95289,0,Camera-20170616-095052-000000302,,Copyright By CE Info Systems Ltd All Rights Reserved,www.mapmyindia.com,,,,,,,,,Mysuru,,Mysuru District,Karnataka,570004,India,91,12.3029599,76.65798201,732.0354782,216.035853,"16th June 2017, 9:54 am",6/16/2017 4:25,2017_RVS_Mysore_Tumkur,,,,,,,,,,,,,,1,212282702,Camera-20170616-095052.zip,,,,,,,,,,,
Camera,95290,0,Camera-20170616-095052-000000305,,Copyright By CE Info Systems Ltd All Rights Reserved,www.mapmyindia.com,,,,,,,,,Mysuru,,Mysuru District,Karnataka,570004,India,91,12.30284454,76.65789312,732.1518892,219.3992764,"16th June 2017, 9:54 am",6/16/2017 4:25,2017_RVS_Mysore_Tumkur,,,,,,,,,,,,,,1,212282702,Camera-20170616-095052.zip,,,,,,,,,,,
Camera,95291,0,Camera-20170616-095052-000000308,,Copyright By CE Info Systems Ltd All Rights Reserved,www.mapmyindia.com,,,,,,,,,Mysuru,,Mysuru District,Karnataka,570004,India,91,12.30273787,76.65779658,732.3224993,222.100911,"16th June 2017, 9:54 am",6/16/2017 4:25,2017_RVS_Mysore_Tumkur,,,,,,,,,,,,,,1,212282702,Camera-20170616-095052.zip,,,,,,,,,,,
Camera,95292,0,Camera-20170616-095052-000000311,,Copyright By CE Info Systems Ltd All Rights Reserved,www.mapmyindia.com,,,,,,,,,Mysuru,,Mysuru District,Karnataka,570004,India,91,12.30263632,76.65769573,732.5660686,236.5306239,"16th June 2017, 9:54 am",6/16/2017 4:25,2017_RVS_Mysore_Tumkur,,,,,,,,,,,,,,1,212282702,Camera-20170616-095052.zip,,,,,,,,,,,
Camera,95293,0,Camera-20170616-095052-000000314,,Copyright By CE Info Systems Ltd All Rights Reserved,www.mapmyindia.com,,,,,,,,,Mysuru,,Mysuru District,Karnataka,570004,India,91,12.30256216,76.65756828,733.04267,240.3526073,"16th June 2017, 9:54 am",6/16/2017 4:25,2017_RVS_Mysore_Tumkur,,,,,,,,,,,,,,1,212282702,Camera-20170616-095052.zip,,,,,,,,,,,
Camera,95294,0,Camera-20170616-095052-000000317,,Copyright By CE Info Systems Ltd All Rights Reserved,www.mapmyindia.com,,,,,,,,,Mysuru,,Mysuru District,Karnataka,570004,India,91,12.30249267,76.65744086,733.4390934,241.2453764,"16th June 2017, 9:54 am",6/16/2017 4:25,2017_RVS_Mysore_Tumkur,,,,,,,,,,,,,,1,212282701,Camera-20170616-095052.zip,,,,,,,,,,,
Camera,95295,0,Camera-20170616-095052-000000320,,Copyright By CE Info Systems Ltd All Rights Reserved,www.mapmyindia.com,,,,,,,,,Mysuru,,Mysuru District,Karnataka,570004,India,91,12.30242742,76.65731817,733.4927433,240.6546148,"16th June 2017, 9:54 am",6/16/2017 4:25,2017_RVS_Mysore_Tumkur,,,,,,,,,,,,,,1,212282701,Camera-20170616-095052.zip,,,,,,,,,,,
Camera,95296,0,Camera-20170616-095052-000000323,,Copyright By CE Info Systems Ltd All Rights Reserved,www.mapmyindia.com,,,,,,,,,Mysuru,,Mysuru District,Karnataka,570004,India,91,12.30235956,76.65719271,733.4288395,241.2519561,"16th June 2017, 9:54 am",6/16/2017 4:25,2017_RVS_Mysore_Tumkur,,,,,,,,,,,,,,1,212282701,Camera-20170616-095052.zip,,,,,,,,,,,
Camera,95297,0,Camera-20170616-095052-000000326,,Copyright By CE Info Systems Ltd All Rights Reserved,www.mapmyindia.com,,,,,,,,,Mysuru,,Mysuru District,Karnataka,570004,India,91,12.30229134,76.6570652,733.3700016,241.3492791,"16th June 2017, 9:54 am",6/16/2017 4:25,2017_RVS_Mysore_Tumkur,,,,,,,,,,,,,,1,212282701,Camera-20170616-095052.zip,,,,,,,,,,,
Camera,95298,0,Camera-20170616-095052-000000329,,Copyright By CE Info Systems Ltd All Rights Reserved,www.mapmyindia.com,,,,,,,,,Mysuru,,Mysuru District,Karnataka,570004,India,91,12.30222426,76.65694052,733.3463589,241.4330295,"16th June 2017, 9:55 am",6/16/2017 4:25,2017_RVS_Mysore_Tumkur,,,,,,,,,,,,,,1,212282701,Camera-20170616-095052.zip,,,,,,,,,,,
Camera,95299,0,Camera-20170616-095052-000000332,,Copyright By CE Info Systems Ltd All Rights Reserved,www.mapmyindia.com,,,,,,,,,Mysuru,,Mysuru District,Karnataka,570004,India,91,12.3021575,76.65681462,733.3480068,241.1107115,"16th June 2017, 9:55 am",6/16/2017 4:25,2017_RVS_Mysore_Tumkur,,,,,,,,,,,,,,1,66420914,Camera-20170616-095052.zip,,,,,,,,,,,
Camera,95300,0,Camera-20170616-095052-000000335,,Copyright By CE Info Systems Ltd All Rights Reserved,www.mapmyindia.com,,,,,,,,,Mysuru,,Mysuru District,Karnataka,570004,India,91,12.3020909,76.65668996,733.3701016,242.4937855,"16th June 2017, 9:55 am",6/16/2017 4:25,2017_RVS_Mysore_Tumkur,,,,,,,,,,,,,,1,212282937,Camera-20170616-095052.zip,,,,,,,,,,,
Camera,95301,0,Camera-20170616-095052-000000338,,Copyright By CE Info Systems Ltd All Rights Reserved,www.mapmyindia.com,,,,,,,,,Mysuru,,Mysuru District,Karnataka,570004,India,91,12.30202879,76.65656376,733.438583,245.9062031,"16th June 2017, 9:55 am",6/16/2017 4:25,2017_RVS_Mysore_Tumkur,,,,,,,,,,,,,,1,212282937,Camera-20170616-095052.zip,,,,,,,,,,,
Camera,95302,0,Camera-20170616-095052-000000341,,Copyright By CE Info Systems Ltd All Rights Reserved,www.mapmyindia.com,,,,,,,,,Mysuru,,Mysuru District,Karnataka,570004,India,91,12.30197403,76.65643244,733.5900112,250.9125331,"16th June 2017, 9:55 am",6/16/2017 4:25,2017_RVS_Mysore_Tumkur,,,,,,,,,,,,,,1,212282937,Camera-20170616-095052.zip,,,,,,,,,,,
Camera,95303,0,Camera-20170616-095052-000000344,,Copyright By CE Info Systems Ltd All Rights Reserved,www.mapmyindia.com,,,,,,,,,Mysuru,,Mysuru District,Karnataka,570004,India,91,12.30193373,76.65629555,733.7042301,257.2338584,"16th June 2017, 9:55 am",6/16/2017 4:25,2017_RVS_Mysore_Tumkur,,,,,,,,,,,,,,1,212282937,Camera-20170616-095052.zip,,,,,,,,,,,
Camera,95304,0,Camera-20170616-095052-000000347,,Copyright By CE Info Systems Ltd All Rights Reserved,www.mapmyindia.com,,,,,,,,,Mysuru,,Mysuru District,Karnataka,570004,India,91,12.30190604,76.65615739,733.8923015,261.3079572,"16th June 2017, 9:55 am",6/16/2017 4:25,2017_RVS_Mysore_Tumkur,,,,,,,,,,,,,,1,212282937,Camera-20170616-095052.zip,,,,,,,,,,,
Camera,95305,0,Camera-20170616-095052-000000350,,Copyright By CE Info Systems Ltd All Rights Reserved,www.mapmyindia.com,,,,,,,,,Mysuru,,Mysuru District,Karnataka,570004,India,91,12.30188585,76.65601759,734.0803118,262.1146197,"16th June 2017, 9:55 am",6/16/2017 4:25,2017_RVS_Mysore_Tumkur,,,,,,,,,,,,,,1,212282937,Camera-20170616-095052.zip,,,,,,,,,,,
Camera,95306,0,Camera-20170616-095052-000000353,,Copyright By CE Info Systems Ltd All Rights Reserved,www.mapmyindia.com,,,,,,,,,Mysuru,,Mysuru District,Karnataka,570004,India,91,12.30186591,76.65587474,734.1908296,261.1275395,"16th June 2017, 9:55 am",6/16/2017 4:25,2017_RVS_Mysore_Tumkur,,,,,,,,,,,,,,1,212282937,Camera-20170616-095052.zip,,,,,,,,,,,
Camera,95307,0,Camera-20170616-095052-000000356,,Copyright By CE Info Systems Ltd All Rights Reserved,www.mapmyindia.com,,,,,,,,,Mysuru,,Mysuru District,Karnataka,570004,India,91,12.30184365,76.65573253,734.2996773,261.6618036,"16th June 2017, 9:55 am",6/16/2017 4:25,2017_RVS_Mysore_Tumkur,,,,,,,,,,,,,,1,212282938,Camera-20170616-095052.zip,,,,,,,,,,,
Camera,95308,0,Camera-20170616-095052-000000359,,Copyright By CE Info Systems Ltd All Rights Reserved,www.mapmyindia.com,,,,,,,,,Mysuru,,Mysuru District,Karnataka,570004,India,91,12.30182296,76.65559382,734.5393845,259.445262,"16th June 2017, 9:55 am",6/16/2017 4:25,2017_RVS_Mysore_Tumkur,,,,,,,,,,,,,,1,212282938,Camera-20170616-095052.zip,,,,,,,,,,,
Camera,95309,0,Camera-20170616-095052-000000362,,Copyright By CE Info Systems Ltd All Rights Reserved,www.mapmyindia.com,,,,,,,,,Mysuru,,Mysuru District,Karnataka,570004,India,91,12.30179194,76.65545577,734.6636741,251.1002167,"16th June 2017, 9:55 am",6/16/2017 4:25,2017_RVS_Mysore_Tumkur,,,,,,,,,,,,,,1,212282938,Camera-20170616-095052.zip,,,,,,,,,,,
Camera,95310,0,Camera-20170616-095052-000000365,,Copyright By CE Info Systems Ltd All Rights Reserved,www.mapmyindia.com,,,,,,,,,Mysuru,,Mysuru District,Karnataka,570004,India,91,12.30174615,76.65532048,734.7302855,255.4410937,"16th June 2017, 9:55 am",6/16/2017 4:25,2017_RVS_Mysore_Tumkur,,,,,,,,,,,,,,1,212282938,Camera-20170616-095052.zip,,,,,,,,,,,
Camera,95311,0,Camera-20170616-095052-000000368,,Copyright By CE Info Systems Ltd All Rights Reserved,www.mapmyindia.com,,,,,,,,,Mysuru,,Mysuru District,Karnataka,570004,India,91,12.30172896,76.65518039,735.0058813,277.9004183,"16th June 2017, 9:55 am",6/16/2017 4:25,2017_RVS_Mysore_Tumkur,,,,,,,,,,,,,,1,66401902,Camera-20170616-095052.zip,,,,,,,,,,,
Camera,95312,0,Camera-20170616-095052-000000371,,Copyright By CE Info Systems Ltd All Rights Reserved,www.mapmyindia.com,,,,,,,,,Mysuru,,Mysuru District,Karnataka,570004,India,91,12.30178931,76.65506056,735.4002347,342.4939217,"16th June 2017, 9:55 am",6/16/2017 4:25,2017_RVS_Mysore_Tumkur,,,,,,,,,,,,,,2,66422347,Camera-20170616-095052.zip,,,,,,,,,,,
Camera,95313,0,Camera-20170616-095052-000000374,,Copyright By CE Info Systems Ltd All Rights Reserved,www.mapmyindia.com,,,,,,,,,Mysuru,,Mysuru District,Karnataka,570004,India,91,12.30192618,76.65503273,735.5020906,352.3466479,"16th June 2017, 9:55 am",6/16/2017 4:25,2017_RVS_Mysore_Tumkur,,,,,,,,,,,,,,3,216295151,Camera-20170616-095052.zip,,,,,,,,,,,
Camera,95314,0,Camera-20170616-095052-000000377,,Copyright By CE Info Systems Ltd All Rights Reserved,www.mapmyindia.com,,,,,,,,,Mysuru,,Mysuru District,Karnataka,570004,India,91,12.30206343,76.65501531,735.6122253,354.8146391,"16th June 2017, 9:55 am",6/16/2017 4:25,2017_RVS_Mysore_Tumkur,,,,,,,,,,,,,,3,216295151,Camera-20170616-095052.zip,,,,,,,,,,,
Camera,95315,0,Camera-20170616-095052-000000380,,Copyright By CE Info Systems Ltd All Rights Reserved,www.mapmyindia.com,,,,,,,,,Mysuru,,Mysuru District,Karnataka,570004,India,91,12.30220065,76.655008,735.7573331,4.903130379,"16th June 2017, 9:55 am",6/16/2017 4:25,2017_RVS_Mysore_Tumkur,,,,,,,,,,,,,,3,66422345,Camera-20170616-095052.zip,,,,,,,,,,,
Camera,95316,0,Camera-20170616-095052-000000383,,Copyright By CE Info Systems Ltd All Rights Reserved,www.mapmyindia.com,,,,,,,,,Mysuru,,Mysuru District,Karnataka,570004,India,91,12.30233904,76.65502216,735.9549091,6.746640403,"16th June 2017, 9:55 am",6/16/2017 4:26,2017_RVS_Mysore_Tumkur,,,,,,,,,,,,,,3,66422345,Camera-20170616-095052.zip,,,,,,,,,,,
Camera,95317,0,Camera-20170616-095052-000000386,,Copyright By CE Info Systems Ltd All Rights Reserved,www.mapmyindia.com,,,,,,,,,Mysuru,,Mysuru District,Karnataka,570004,India,91,12.3024769,76.65504105,736.1924241,8.446217201,"16th June 2017, 9:55 am",6/16/2017 4:26,2017_RVS_Mysore_Tumkur,,,,,,,,,,,,,,3,66422345,Camera-20170616-095052.zip,,,,,,,,,,,
Camera,95318,0,Camera-20170616-095052-000000389,,Copyright By CE Info Systems Ltd All Rights Reserved,www.mapmyindia.com,,,,,,,,,Mysuru,,Mysuru District,Karnataka,570004,India,91,12.30261628,76.65504894,736.1994704,336.9368331,"16th June 2017, 9:55 am",6/16/2017 4:26,2017_RVS_Mysore_Tumkur,,,,,,,,,,,,,,3,66422345,Camera-20170616-095052.zip,,,,,,,,,,,
Camera,95319,0,Camera-20170616-095052-000000392,,Copyright By CE Info Systems Ltd All Rights Reserved,www.mapmyindia.com,,,,,,,,,Mysuru,,Mysuru District,Karnataka,570004,India,91,12.30268838,76.65494657,736.1218389,272.3007074,"16th June 2017, 9:55 am",6/16/2017 4:26,2017_RVS_Mysore_Tumkur,,,,,,,,,,,,,,3,219118152,Camera-20170616-095052.zip,,,,,,,,,,,
Camera,95320,0,Camera-20170616-095052-000000395,,Copyright By CE Info Systems Ltd All Rights Reserved,www.mapmyindia.com,,,,,,,,,Mysuru,,Mysuru District,Karnataka,570004,India,91,12.30269189,76.65480677,736.4488483,271.9713212,"16th June 2017, 9:55 am",6/16/2017 4:26,2017_RVS_Mysore_Tumkur,,,,,,,,,,,,,,3,219118152,Camera-20170616-095052.zip,,,,,,,,,,,
Camera,95321,0,Camera-20170616-095052-000000398,,Copyright By CE Info Systems Ltd All Rights Reserved,www.mapmyindia.com,,,,,,,,,Mysuru,,Mysuru District,Karnataka,570004,India,91,12.30269944,76.65466424,736.7682284,272.2775459,"16th June 2017, 9:55 am",6/16/2017 4:26,2017_RVS_Mysore_Tumkur,,,,,,,,,,,,,,3,219118152,Camera-20170616-095052.zip,,,,,,,,,,,
Camera,95322,0,Camera-20170616-095052-000000401,,Copyright By CE Info Systems Ltd All Rights Reserved,www.mapmyindia.com,,,,,,,,,Mysuru,,Mysuru District,Karnataka,570004,India,91,12.30270257,76.65451998,737.0337755,270.3070566,"16th June 2017, 9:55 am",6/16/2017 4:26,2017_RVS_Mysore_Tumkur,,,,,,,,,,,,,,3,219118152,Camera-20170616-095052.zip,,,,,,,,,,,
Camera,95323,0,Camera-20170616-095052-000000404,,Copyright By CE Info Systems Ltd All Rights Reserved,www.mapmyindia.com,,,,,,,,,Mysuru,,Mysuru District,Karnataka,570004,India,91,12.30270496,76.65437489,737.4504456,271.950288,"16th June 2017, 9:56 am",6/16/2017 4:26,2017_RVS_Mysore_Tumkur,,,,,,,,,,,,,,3,219118152,Camera-20170616-095052.zip,,,,,,,,,,,
Camera,95324,0,Camera-20170616-095052-000000407,,Copyright By CE Info Systems Ltd All Rights Reserved,www.mapmyindia.com,,,,,,,,,Mysuru,,Mysuru District,Karnataka,570004,India,91,12.30270879,76.65423265,737.9101455,271.5249355,"16th June 2017, 9:56 am",6/16/2017 4:26,2017_RVS_Mysore_Tumkur,,,,,,,,,,,,,,3,219118152,Camera-20170616-095052.zip,,,,,,,,,,,
Camera,95325,0,Camera-20170616-095052-000000410,,Copyright By CE Info Systems Ltd All Rights Reserved,www.mapmyindia.com,,,,,,,,,Mysuru,,Mysuru District,Karnataka,570004,India,91,12.30271094,76.65409078,738.3618498,270.9733876,"16th June 2017, 9:56 am",6/16/2017 4:26,2017_RVS_Mysore_Tumkur,,,,,,,,,,,,,,3,219118152,Camera-20170616-095052.zip,,,,,,,,,,,
Camera,95326,0,Camera-20170616-095052-000000413,,Copyright By CE Info Systems Ltd All Rights Reserved,www.mapmyindia.com,,,,,,,,,Mysuru,,Mysuru District,Karnataka,570004,India,91,12.30271399,76.65394301,738.8305829,271.5092756,"16th June 2017, 9:56 am",6/16/2017 4:26,2017_RVS_Mysore_Tumkur,,,,,,,,,,,,,,3,219118152,Camera-20170616-095052.zip,,,,,,,,,,,
Camera,95327,0,Camera-20170616-095052-000000416,,Copyright By CE Info Systems Ltd All Rights Reserved,www.mapmyindia.com,,,,,,,,,Mysuru,,Mysuru District,Karnataka,570004,India,91,12.30271792,76.65380403,739.2076412,272.135852,"16th June 2017, 9:56 am",6/16/2017 4:26,2017_RVS_Mysore_Tumkur,,,,,,,,,,,,,,3,219118152,Camera-20170616-095052.zip,,,,,,,,,,,
Camera,95328,0,Camera-20170616-095052-000000419,,Copyright By CE Info Systems Ltd All Rights Reserved,www.mapmyindia.com,,,,,,,,,Mysuru,,Mysuru District,Karnataka,570004,India,91,12.30272313,76.65366491,739.6047801,271.6810074,"16th June 2017, 9:56 am",6/16/2017 4:26,2017_RVS_Mysore_Tumkur,,,,,,,,,,,,,,3,219118152,Camera-20170616-095052.zip,,,,,,,,,,,
Camera,95329,0,Camera-20170616-095052-000000422,,Copyright By CE Info Systems Ltd All Rights Reserved,www.mapmyindia.com,,,,,,,,,Mysuru,,Mysuru District,Karnataka,570004,India,91,12.30272739,76.6535253,739.9037134,271.2626394,"16th June 2017, 9:56 am",6/16/2017 4:26,2017_RVS_Mysore_Tumkur,,,,,,,,,,,,,,3,219118152,Camera-20170616-095052.zip,,,,,,,,,,,
Camera,95330,0,Camera-20170616-095052-000000425,,Copyright By CE Info Systems Ltd All Rights Reserved,www.mapmyindia.com,,,,,,,,,Mysuru,,Mysuru District,Karnataka,570004,India,91,12.30273143,76.65338004,740.2302566,271.5465446,"16th June 2017, 9:56 am",6/16/2017 4:26,2017_RVS_Mysore_Tumkur,,,,,,,,,,,,,,3,219118152,Camera-20170616-095052.zip,,,,,,,,,,,
Camera,95331,0,Camera-20170616-095052-000000428,,Copyright By CE Info Systems Ltd All Rights Reserved,www.mapmyindia.com,,,,,,,,,Mysuru,,Mysuru District,Karnataka,570004,India,91,12.30273365,76.65323968,740.2293021,269.1291916,"16th June 2017, 9:56 am",6/16/2017 4:26,2017_RVS_Mysore_Tumkur,,,,,,,,,,,,,,3,219118152,Camera-20170616-095052.zip,,,,,,,,,,,
Camera,95332,0,Camera-20170616-095052-000000431,,Copyright By CE Info Systems Ltd All Rights Reserved,www.mapmyindia.com,,,,,,,,,Mysuru,,Mysuru District,Karnataka,570004,India,91,12.30271109,76.65310279,740.1257696,233.3178505,"16th June 2017, 9:56 am",6/16/2017 4:26,2017_RVS_Mysore_Tumkur,,,,,,,,,,,,,,3,219118152,Camera-20170616-095052.zip,,,,,,,,,,,
Camera,95333,0,Camera-20170616-095052-000000434,,Copyright By CE Info Systems Ltd All Rights Reserved,www.mapmyindia.com,,,,,,,,,Mysuru,,Mysuru District,Karnataka,570004,India,91,12.30260247,76.65301983,739.826348,187.575491,"16th June 2017, 9:56 am",6/16/2017 4:26,2017_RVS_Mysore_Tumkur,,,,,,,,,,,,,,2,66402618,Camera-20170616-095052.zip,,,,,,,,,,,
Camera,95334,0,Camera-20170616-095052-000000437,,Copyright By CE Info Systems Ltd All Rights Reserved,www.mapmyindia.com,,,,,,,,,Mysuru,,Mysuru District,Karnataka,570004,India,91,12.30246104,76.65301112,739.4867822,179.5276791,"16th June 2017, 9:56 am",6/16/2017 4:26,2017_RVS_Mysore_Tumkur,,,,,,,,,,,,,,2,66402618,Camera-20170616-095052.zip,,,,,,,,,,,
Camera,95335,0,Camera-20170616-095052-000000440,,Copyright By CE Info Systems Ltd All Rights Reserved,www.mapmyindia.com,,,,,,,,,Mysuru,,Mysuru District,Karnataka,570004,India,91,12.30232268,76.65301341,739.0916134,178.7241781,"16th June 2017, 9:56 am",6/16/2017 4:26,2017_RVS_Mysore_Tumkur,,,,,,,,,,,,,,2,66402618,Camera-20170616-095052.zip,,,,,,,,,,,
Camera,95336,0,Camera-20170616-095052-000000443,,Copyright By CE Info Systems Ltd All Rights Reserved,www.mapmyindia.com,,,,,,,,,Mysuru,,Mysuru District,Karnataka,570004,India,91,12.30218016,76.65301594,738.5713225,177.4866023,"16th June 2017, 9:56 am",6/16/2017 4:26,2017_RVS_Mysore_Tumkur,,,,,,,,,,,,,,2,66402618,Camera-20170616-095052.zip,,,,,,,,,,,
Camera,95337,0,Camera-20170616-095052-000000446,,Copyright By CE Info Systems Ltd All Rights Reserved,www.mapmyindia.com,,,,,,,,,Mysuru,,Mysuru District,Karnataka,570004,India,91,12.30204204,76.65303093,737.6752991,170.8148421,"16th June 2017, 9:56 am",6/16/2017 4:26,2017_RVS_Mysore_Tumkur,,,,,,,,,,,,,,2,66402618,Camera-20170616-095052.zip,,,,,,,,,,,
Camera,95338,0,Camera-20170616-095052-000000449,,Copyright By CE Info Systems Ltd All Rights Reserved,www.mapmyindia.com,,,,,,,,,Mysuru,,Mysuru District,Karnataka,570004,India,91,12.30190748,76.65305041,734.6601352,173.4499342,"16th June 2017, 9:57 am",6/16/2017 4:27,2017_RVS_Mysore_Tumkur,,,,,,,,,,,,,,2,216294326,Camera-20170616-095052.zip,,,,,,,,,,,
Camera,95339,0,Camera-20170616-095052-000000452,,Copyright By CE Info Systems Ltd All Rights Reserved,www.mapmyindia.com,,,,,,,,,Mysuru,,Mysuru District,Karnataka,570004,India,91,12.30177349,76.65307594,734.5135625,150.8298781,"16th June 2017, 9:57 am",6/16/2017 4:27,2017_RVS_Mysore_Tumkur,,,,,,,,,,,,,,2,212280875,Camera-20170616-095052.zip,,,,,,,,,,,
Camera,95340,0,Camera-20170616-095052-000000455,,Copyright By CE Info Systems Ltd All Rights Reserved,www.mapmyindia.com,,,,,,,,,Mysuru,,Mysuru District,Karnataka,570004,India,91,12.30167581,76.65316996,734.2323463,112.345059,"16th June 2017, 9:57 am",6/16/2017 4:27,2017_RVS_Mysore_Tumkur,,,,,,,,,,,,,,2,212280875,Camera-20170616-095052.zip,,,,,,,,,,,
Camera,95341,0,Camera-20170616-095052-000000458,,Copyright By CE Info Systems Ltd All Rights Reserved,www.mapmyindia.com,,,,,,,,,Mysuru,,Mysuru District,Karnataka,570004,India,91,12.30164191,76.65330582,733.8155931,91.27242122,"16th June 2017, 9:57 am",6/16/2017 4:27,2017_RVS_Mysore_Tumkur,,,,,,,,,,,,,,2,66400717,Camera-20170616-095052.zip,,,,,,,,,,,
Camera,95342,0,Camera-20170616-095052-000000461,,Copyright By CE Info Systems Ltd All Rights Reserved,www.mapmyindia.com,,,,,,,,,Mysuru,,Mysuru District,Karnataka,570004,India,91,12.30165063,76.65344501,732.7096529,83.27408635,"16th June 2017, 9:57 am",6/16/2017 4:27,2017_RVS_Mysore_Tumkur,,,,,,,,,,,,,,2,66400717,Camera-20170616-095052.zip,,,,,,,,,,,
Camera,95343,0,Camera-20170616-095052-000000464,,Copyright By CE Info Systems Ltd All Rights Reserved,www.mapmyindia.com,,,,,,,,,Mysuru,,Mysuru District,Karnataka,570004,India,91,12.30166752,76.65358503,732.5793208,82.63401991,"16th June 2017, 9:57 am",6/16/2017 4:27,2017_RVS_Mysore_Tumkur,,,,,,,,,,,,,,2,66400717,Camera-20170616-095052.zip,,,,,,,,,,,
Camera,95344,0,Camera-20170616-095052-000000467,,Copyright By CE Info Systems Ltd All Rights Reserved,www.mapmyindia.com,,,,,,,,,Mysuru,,Mysuru District,Karnataka,570004,India,91,12.30168644,76.65372573,732.4963909,81.26692895,"16th June 2017, 9:57 am",6/16/2017 4:27,2017_RVS_Mysore_Tumkur,,,,,,,,,,,,,,2,66400717,Camera-20170616-095052.zip,,,,,,,,,,,
Camera,95345,0,Camera-20170616-095052-000000470,,Copyright By CE Info Systems Ltd All Rights Reserved,www.mapmyindia.com,,,,,,,,,Mysuru,,Mysuru District,Karnataka,570004,India,91,12.30170671,76.65386623,732.4777531,82.9658938,"16th June 2017, 9:57 am",6/16/2017 4:27,2017_RVS_Mysore_Tumkur,,,,,,,,,,,,,,2,66400717,Camera-20170616-095052.zip,,,,,,,,,,,
Camera,95346,0,Camera-20170616-095052-000000473,,Copyright By CE Info Systems Ltd All Rights Reserved,www.mapmyindia.com,,,,,,,,,Mysuru,,Mysuru District,Karnataka,570004,India,91,12.30172148,76.65400633,732.4694913,84.62566587,"16th June 2017, 9:57 am",6/16/2017 4:27,2017_RVS_Mysore_Tumkur,,,,,,,,,,,,,,2,66400717,Camera-20170616-095052.zip,,,,,,,,,,,
Camera,95347,0,Camera-20170616-095052-000000476,,Copyright By CE Info Systems Ltd All Rights Reserved,www.mapmyindia.com,,,,,,,,,Mysuru,,Mysuru District,Karnataka,570004,India,91,12.30173587,76.65415014,732.5223646,83.8606069,"16th June 2017, 9:57 am",6/16/2017 4:27,2017_RVS_Mysore_Tumkur,,,,,,,,,,,,,,2,66400717,Camera-20170616-095052.zip,,,,,,,,,,,
Camera,95348,0,Camera-20170616-095052-000000479,,Copyright By CE Info Systems Ltd All Rights Reserved,www.mapmyindia.com,,,,,,,,,Mysuru,,Mysuru District,Karnataka,570004,India,91,12.30175058,76.65429154,732.4910315,83.55717566,"16th June 2017, 9:57 am",6/16/2017 4:28,2017_RVS_Mysore_Tumkur,,,,,,,,,,,,,,2,66400717,Camera-20170616-095052.zip,,,,,,,,,,,
Camera,95349,0,Camera-20170616-095052-000000482,,Copyright By CE Info Systems Ltd All Rights Reserved,www.mapmyindia.com,,,,,,,,,Mysuru,,Mysuru District,Karnataka,570004,India,91,12.30176741,76.65443708,732.4796349,82.33743476,"16th June 2017, 9:57 am",6/16/2017 4:28,2017_RVS_Mysore_Tumkur,,,,,,,,,,,,,,2,66400717,Camera-20170616-095052.zip,,,,,,,,,,,
Camera,95350,0,Camera-20170616-095052-000000485,,Copyright By CE Info Systems Ltd All Rights Reserved,www.mapmyindia.com,,,,,,,,,Mysuru,,Mysuru District,Karnataka,570004,India,91,12.30178855,76.65458224,732.4378647,80.63772105,"16th June 2017, 9:57 am",6/16/2017 4:28,2017_RVS_Mysore_Tumkur,,,,,,,,,,,,,,2,66400717,Camera-20170616-095052.zip,,,,,,,,,,,
Camera,95351,0,Camera-20170616-095052-000000488,,Copyright By CE Info Systems Ltd All Rights Reserved,www.mapmyindia.com,,,,,,,,,Mysuru,,Mysuru District,Karnataka,570004,India,91,12.301814,76.65472407,732.1608041,76.34542998,"16th June 2017, 9:57 am",6/16/2017 4:28,2017_RVS_Mysore_Tumkur,,,,,,,,,,,,,,2,66400717,Camera-20170616-095052.zip,,,,,,,,,,,
Camera,95352,0,Camera-20170616-095052-000000491,,Copyright By CE Info Systems Ltd All Rights Reserved,www.mapmyindia.com,,,,,,,,,Mysuru,,Mysuru District,Karnataka,570004,India,91,12.30185502,76.65486115,731.7030184,65.07688034,"16th June 2017, 9:57 am",6/16/2017 4:28,2017_RVS_Mysore_Tumkur,,,,,,,,,,,,,,2,66400717,Camera-20170616-095052.zip,,,,,,,,,,,
